<ArGpsLocationData><Entry><id>0</id><lat>36.82206590</lat><lng>128.09506300</lng><altitude>0</altitude><altitudeMode>GroundRelative</altitudeMode><name>one</name><meshId>Photo1</meshId><movementSmoothing>0.05</movementSmoothing><maxNumberOfLocationUpdates>0</maxNumberOfLocationUpdates><useMovingAverage>false</useMovingAverage><hideObjectUtilItIsPlaced>true</hideObjectUtilItIsPlaced></Entry><Entry><id>1</id><lat>36.82186708</lat><lng>128.09509980</lng><altitude>0</altitude><altitudeMode>GroundRelative</altitudeMode><name>two</name><meshId>Photo2</meshId><movementSmoothing>0.05</movementSmoothing><maxNumberOfLocationUpdates>0</maxNumberOfLocationUpdates><useMovingAverage>false</useMovingAverage><hideObjectUtilItIsPlaced>true</hideObjectUtilItIsPlaced></Entry><Entry><id>2</id><lat>36.82241850</lat><lng>128.09516650</lng><altitude>0</altitude><altitudeMode>GroundRelative</altitudeMode><name>three</name><meshId>Photo3</meshId><movementSmoothing>0.05</movementSmoothing><maxNumberOfLocationUpdates>0</maxNumberOfLocationUpdates><useMovingAverage>false</useMovingAverage><hideObjectUtilItIsPlaced>true</hideObjectUtilItIsPlaced></Entry><Entry><id>3</id><lat>36.82175687</lat><lng>128.09509426</lng><altitude>0</altitude><altitudeMode>GroundRelative</altitudeMode><name>four</name><meshId>Photo4</meshId><movementSmoothing>0.05</movementSmoothing><maxNumberOfLocationUpdates>0</maxNumberOfLocationUpdates><useMovingAverage>false</useMovingAverage><hideObjectUtilItIsPlaced>true</hideObjectUtilItIsPlaced></Entry><Entry><id>4</id><lat>36.82287070</lat><lng>128.09505310</lng><altitude>0</altitude><altitudeMode>GroundRelative</altitudeMode><name>five</name><meshId>Photo5</meshId><movementSmoothing>0.05</movementSmoothing><maxNumberOfLocationUpdates>0</maxNumberOfLocationUpdates><useMovingAverage>false</useMovingAverage><hideObjectUtilItIsPlaced>true</hideObjectUtilItIsPlaced></Entry></ArGpsLocationData>